$GPGSV,3,1,09,14,76,072,35,11,38,301,37,31,21,240,30,25,20,165,*7B
$GPGSV,3,2,09,18,17,089,32,23,14,089,,15,12,143,,09,10,034,32*74
$GPGSV,3,3,09,03,09,214,28*47
$GPRMC,022409.639,A,4740.2753,N,12206.9193,W,0.18,222.29,050403,,*13
$GPGSA,A,3,11,14,18,09,,,,,,,,,3.7,2.5,2.7*31
$GPRMC,022410.639,A,4740.2754,N,12206.9191,W,0.52,75.03,050403,,*28
$GPGSV,3,1,09,14,76,072,35,11,38,301,37,31,21,240,29,25,20,165,*73
$GPGSV,3,2,09,18,17,089,33,23,14,089,,15,12,143,,09,10,034,34*73
$GPGSV,3,3,09,03,09,214,28*47
$GPRMC,022411.639,A,4740.2753,N,12206.9192,W,0.18,142.01,050403,,*14
$GPGSA,A,3,11,03,14,31,18,09,,,,,,,1.9,1.1,1.5*3A
$GPRMC,022412.639,A,4740.2753,N,12206.9192,W,0.15,124.51,050403,,*1F
$GPGSV,3,1,09,14,76,072,34,11,38,301,33,31,21,240,28,25,20,165,*77
$GPGSV,3,2,09,18,17,089,26,23,14,089,,15,12,143,,09,10,034,31*72
$GPGSV,3,3,09,03,09,214,27*48
$GPRMC,022413.639,A,4740.2753,N,12206.9192,W,0.14,64.13,050403,,*2C
$GPGSA,A,3,11,03,14,31,18,09,,,,,,,1.9,1.1,1.5*3A
$GPRMC,022414.639,A,4740.2752,N,12206.9193,W,0.22,211.95,050403,,*10
$GPGSV,3,1,09,14,76,072,33,11,38,301,34,31,21,240,29,25,20,165,*76
$GPGSV,3,2,09,18,17,089,29,23,14,089,,15,12,143,,09,10,034,33*7F
$GPGSV,3,3,09,03,09,214,29*46
$GPRMC,022415.639,A,4740.2751,N,12206.9193,W,0.56,188.42,050403,,*18
$GPGSA,A,3,11,03,14,31,18,09,,,,,,,1.9,1.1,1.5*3A
$GPRMC,022416.639,A,4740.2749,N,12206.9192,W,0.71,151.35,050403,,*12
$GPGSV,3,1,09,14,76,072,35,11,38,301,38,31,21,240,30,25,20,165,*74
$GPGSV,3,2,09,18,17,089,31,23,14,089,,15,12,143,,09,10,034,33*76
$GPGSV,3,3,09,03,09,214,27*48
$GPRMC,022417.639,A,4740.2749,N,12206.9191,W,0.36,74.75,050403,,*21
$GPGSA,A,3,11,03,14,31,18,09,,,,,,,1.9,1.1,1.5*3A
$GPRMC,022418.639,A,4740.2749,N,12206.9191,W,0.16,25.87,050403,,*25
$GPGSV,3,1,09,14,76,072,36,11,38,301,38,31,21,240,32,25,20,165,*75
$GPGSV,3,2,09,18,17,089,30,23,14,089,,15,12,143,,09,10,034,33*77
$GPGSV,3,3,09,03,09,214,32*4C
$GPRMC,022419.639,A,4740.2748,N,12206.9191,W,0.11,136.09,050403,,*17
$GPGSA,A,3,11,03,14,31,18,09,,,,,,,1.9,1.1,1.5*3A
$GPRMC,022420.639,A,4740.2748,N,12206.9191,W,0.07,17.67,050403,,*20
$GPGSV,3,1,09,14,76,072,36,11,38,301,37,31,21,240,30,25,20,165,*78
$GPGSV,3,2,09,18,17,089,32,23,14,089,,15,12,143,,09,10,034,33*75
$GPGSV,3,3,09,03,09,214,32*4C
$GPRMC,022421.639,A,4740.2747,N,12206.9191,W,0.03,329.69,050403,,*1A
$GPGSA,A,3,11,03,14,31,18,09,,,,,,,1.9,1.1,1.5*3A
$GPRMC,022422.638,A,4740.2746,N,12206.9191,W,0.15,154.90,050403,,*10
$GPGSV,3,1,09,14,76,072,35,11,38,301,37,31,21,240,32,25,20,165,*79
$GPGSV,3,2,09,18,17,089,32,23,14,089,,15,12,143,,09,10,034,33*75
$GPGSV,3,3,09,03,09,214,31*4F
$GPRMC,022423.638,A,4740.2746,N,12206.9191,W,0.05,165.57,050403,,*19
$GPGSA,A,3,11,03,14,31,18,09,,,,,,,1.9,1.1,1.5*3A
$GPRMC,022424.638,A,4740.2745,N,12206.9191,W,0.12,223.53,050403,,*1E
$GPGSV,3,1,09,14,76,072,35,11,38,301,38,31,21,240,31,25,20,165,*75
$GPGSV,3,2,09,18,17,089,31,23,14,089,,15,12,143,,09,10,034,32*77
$GPGSV,3,3,09,03,09,214,32*4C
$GPRMC,022425.638,A,4740.2745,N,12206.9190,W,0.17,120.80,050403,,*15
$GPGSA,A,3,11,03,14,31,18,09,,,,,,,1.9,1.1,1.5*3A
$GPRMC,022426.638,A,4740.2746,N,12206.9190,W,0.55,15.49,050403,,*21
$GPGSV,3,1,09,14,76,072,34,11,38,301,37,31,21,240,28,25,20,165,*73
$GPGSV,3,2,09,18,17,089,34,23,14,089,,15,12,143,,09,10,034,31*71
$GPGSV,3,3,09,03,09,214,31*4F
$GPRMC,022427.638,A,4740.2753,N,12206.9186,W,2.92,19.02,050403,,*29
$GPGSA,A,3,11,03,14,18,,,,,,,,,2.7,1.7,2.1*3D
$GPRMC,022428.638,A,4740.2761,N,12206.9183,W,3.04,17.70,050403,,*27
$GPGSV,3,1,09,14,76,072,38,11,38,301,36,31,21,240,38,25,20,165,*7F
$GPGSV,3,2,09,18,17,089,31,23,14,089,,15,12,143,,09,10,034,30*75
$GPGSV,3,3,09,03,09,214,26*49
$GPRMC,022429.638,A,4740.2767,N,12206.9181,W,2.42,12.57,050403,,*21
$GPGSA,A,2,11,14,,,,,,,,,,,0.0,0.0,0.0*36
$GPRMC,022430.638,A,4740.2773,N,12206.9177,W,2.33,23.19,050403,,*2B
$GPGSV,3,1,09,14,76,072,36,11,38,301,38,31,21,240,36,25,20,165,31*73
$GPGSV,3,2,09,18,17,089,32,23,14,089,,15,12,143,,09,10,034,25*72
$GPGSV,3,3,09,03,09,214,27*48
$GPRMC,022431.638,A,4740.2779,N,12206.9173,W,2.42,31.52,050403,,*2E
$GPGSA,A,3,11,14,31,25,18,09,,,,,,,1.9,1.0,1.6*3C
$GPRMC,022432.638,A,4740.2782,N,12206.9170,W,1.43,38.04,050403,,*22
$GPGSV,3,1,09,14,76,072,36,11,38,301,37,31,21,240,32,25,20,165,29*71
$GPGSV,3,2,09,18,17,089,27,23,14,089,,15,12,143,,09,10,034,26*75
$GPGSV,3,3,09,03,09,214,21*4E
$GPGSA,A,3,11,14,31,25,18,09,,,,,,,1.9,1.0,1.6*3C
$GPRMC,022434.638,A,4740.2781,N,12206.9172,W,1.13,214.57,050403,,*1A
$GPGSV,3,1,09,14,76,072,39,11,38,301,40,31,21,240,36,25,20,165,32*70
$GPGSV,3,2,09,18,17,089,32,23,14,089,,15,12,143,,09,10,034,32*74
$GPGSV,3,3,09,03,09,214,21*4E
$GPGSA,A,3,11,03,14,31,25,18,,,,,,,2.4,1.3,2.0*3E
$GPRMC,022436.637,A,4740.2782,N,12206.9199,W,4.04,273.41,050403,,*14
$GPGSV,3,1,09,14,76,072,37,11,38,301,39,31,21,240,23,25,20,165,25*72
$GPGSV,3,2,09,18,17,089,30,23,14,089,29,15,12,143,,09,10,034,28*76
$GPGSV,3,3,09,03,09,214,23*4C
$GPGSA,A,3,11,14,18,23,,,,,,,,,50.0,50.0,50.0*0A
$GPRMC,022438.637,A,4740.2788,N,12206.9240,W,5.33,284.17,050403,,*19
$GPGSV,3,1,09,14,76,072,37,11,38,301,38,31,21,240,34,25,20,165,23*73
$GPGSV,3,2,09,18,17,089,31,23,14,089,28,15,12,143,,09,10,034,19*74
$GPGSV,3,3,09,03,09,214,23*4C
$GPGSA,A,3,11,14,31,25,18,09,,,,,,,1.9,1.0,1.6*3C
$GPRMC,022440.637,A,4740.2832,N,12206.9250,W,8.44,2.90,050403,,*17
$GPGSV,3,1,09,14,76,072,40,11,38,301,38,31,21,240,32,25,20,165,32*75
$GPGSV,3,2,09,18,17,089,29,23,14,089,27,15,12,143,,09,10,034,34*7D
$GPGSV,3,3,09,03,09,214,*4D
$GPGSA,A,3,11,14,31,25,18,09,,,,,,,1.9,1.0,1.6*3C
$GPRMC,022442.637,A,4740.2882,N,12206.9227,W,9.18,30.56,050403,,*2D
$GPGSV,3,1,09,14,76,072,39,11,38,301,35,31,21,240,30,25,20,165,38*7E
$GPGSV,3,2,09,18,17,089,28,23,14,089,27,15,12,143,,09,10,034,37*7F
$GPGSV,3,3,09,03,09,214,*4D
$GPGSA,A,3,11,14,25,09,,,,,,,,,2.3,1.4,1.8*34
$GPRMC,022444.637,A,4740.2932,N,12206.9194,W,9.63,24.36,050403,,*25
$GPGSV,3,1,09,14,76,072,40,11,38,301,38,31,21,240,31,25,20,165,36*72
$GPGSV,3,2,09,18,17,089,27,23,14,089,,15,12,143,,09,10,034,33*71
$GPGSV,3,3,09,03,09,214,28*47
$GPGSA,A,3,11,14,25,09,,,,,,,,,2.3,1.4,1.8*34
$GPRMC,022446.637,A,4740.2994,N,12206.9173,W,11.16,9.67,050403,,*22
$GPGSV,3,1,09,14,76,072,38,11,38,301,37,31,21,240,32,25,20,165,30*77
$GPGSV,3,2,09,18,17,089,26,23,14,089,,15,12,143,32,09,10,034,29*7A
$GPGSV,3,3,09,03,09,214,28*47
$GPRMC,022447.637,A,4740.3022,N,12206.9174,W,9.57,358.30,050403,,*18
$GPGSA,A,3,11,03,14,31,25,18,15,,,,,,2.3,1.2,2.0*3C
$GPRMC,022448.637,A,4740.3050,N,12206.9173,W,9.76,2.23,050403,,*18
$GPGSV,3,1,09,14,75,071,40,11,38,301,38,31,21,239,34,25,20,165,26*78
$GPGSV,3,2,09,18,17,090,26,23,13,089,27,15,11,143,34,09,10,034,24*78
$GPGSV,3,3,09,03,09,214,29*46
$GPRMC,022449.637,A,4740.3078,N,12206.9167,W,9.50,8.87,050403,,*16
$GPGSA,A,3,11,03,14,31,25,15,,,,,,,3.6,2.0,3.0*31
$GPRMC,022450.636,A,4740.3096,N,12206.9163,W,6.04,10.37,050403,,*27
$GPGSV,3,1,09,14,75,071,40,11,38,301,38,31,21,239,32,25,20,165,30*79
$GPGSV,3,2,09,18,17,090,29,23,13,089,27,15,11,143,27,09,10,034,25*74
$GPGSV,3,3,09,03,09,214,33*4D
$GPRMC,022451.636,A,4740.3107,N,12206.9158,W,3.45,17.69,050403,,*2B
$GPGSA,A,3,11,03,14,31,25,09,,,,,,,1.9,1.1,1.5*34
$GPRMC,022452.636,A,4740.3113,N,12206.9154,W,1.90,29.84,050403,,*25
$GPGSV,3,1,09,14,75,071,38,11,38,301,37,31,21,239,34,25,20,165,36*79
$GPGSV,3,2,09,18,17,090,21,23,13,089,,15,11,143,32,09,10,034,32*7B
$GPGSV,3,3,09,03,09,214,28*47
$GPRMC,022453.636,A,4740.3116,N,12206.9152,W,0.74,47.06,050403,,*2E
$GPGSA,A,3,11,03,14,31,25,09,,,,,,,1.9,1.1,1.5*34
$GPRMC,022454.636,A,4740.3120,N,12206.9149,W,1.15,28.66,050403,,*2F
$GPGSV,3,1,09,14,75,071,38,11,38,301,39,31,21,239,30,25,20,165,39*7C
$GPGSV,3,2,09,18,17,090,32,23,13,089,,15,11,143,27,09,10,034,29*77
$GPGSV,3,3,09,03,09,214,33*4D
$GPRMC,022455.636,A,4740.3124,N,12206.9147,W,0.71,24.15,050403,,*2F
$GPGSA,A,3,11,03,14,31,25,18,09,,,,,,1.8,0.9,1.5*35
$GPRMC,022456.636,A,4740.3126,N,12206.9146,W,0.21,5.08,050403,,*15
$GPGSV,3,1,09,14,75,071,35,11,38,301,39,31,21,239,26,25,20,165,39*76
$GPGSV,3,2,09,18,17,090,30,23,13,089,,15,11,143,27,09,10,034,31*7C
$GPGSV,3,3,09,03,09,214,32*4C
$GPRMC,022457.636,A,4740.3127,N,12206.9145,W,0.03,97.19,050403,,*2D
$GPGSA,A,3,11,03,14,25,18,09,,,,,,,1.8,1.0,1.5*3F
$GPRMC,022458.636,A,4740.3128,N,12206.9144,W,0.14,52.09,050403,,*22
$GPGSV,3,1,09,14,75,071,35,11,38,301,38,31,21,239,27,25,20,165,40*78
$GPGSV,3,2,09,18,17,090,31,23,13,089,,15,11,143,,09,10,034,31*78
$GPGSV,3,3,09,03,09,214,33*4D
$GPRMC,022459.636,A,4740.3130,N,12206.9143,W,0.03,33.21,050403,,*26
$GPGSA,A,3,11,03,14,25,18,09,,,,,,,1.8,1.0,1.5*3F
$GPRMC,022500.636,A,4740.3130,N,12206.9143,W,0.08,268.25,050403,,*18
$GPGSV,3,1,09,14,75,071,38,11,38,301,37,31,21,239,27,25,20,165,40*7A
$GPGSV,3,2,09,18,17,090,32,23,13,089,,15,11,143,,09,10,034,30*7A
$GPGSV,3,3,09,03,09,214,33*4D
$GPRMC,022501.636,A,4740.3132,N,12206.9141,W,0.46,29.76,050403,,*22
$GPGSA,A,3,11,03,14,31,25,18,09,,,,,,1.8,0.9,1.5*35
$GPRMC,022502.636,A,4740.3138,N,12206.9135,W,2.32,31.06,050403,,*27
$GPGSV,3,1,09,14,75,071,35,11,38,301,37,31,21,239,26,25,20,165,34*75
$GPGSV,3,2,09,18,17,090,32,23,13,089,32,15,11,143,25,09,10,034,29*74
$GPGSV,3,3,09,03,09,214,28*47
$GPRMC,022503.636,A,4740.3147,N,12206.9116,W,5.54,58.05,050403,,*24
$GPGSA,A,3,11,14,25,23,,,,,,,,,2.6,1.5,2.1*32
$GPRMC,022504.635,A,4740.3147,N,12206.9078,W,9.33,91.79,050403,,*2A
$GPGSV,3,1,09,14,75,071,33,11,38,301,30,31,21,239,36,25,20,165,28*78
$GPGSV,3,2,09,18,17,090,36,23,13,089,37,15,11,143,26,09,10,034,29*76
$GPGSV,3,3,09,03,09,214,29*46
$GPRMC,022505.635,A,4740.3146,N,12206.9027,W,12.67,92.62,050403,,*12
$GPGSA,A,2,14,,,,,,,,,,,,0.0,0.0,0.0*36
$GPRMC,022506.635,A,4740.3145,N,12206.8974,W,13.00,92.68,050403,,*16
$GPGSV,3,1,09,14,75,071,33,11,38,301,23,31,21,239,37,25,20,165,28*7B
$GPGSV,3,2,09,18,17,090,37,23,13,089,37,15,11,143,25,09,10,034,29*74
$GPGSV,3,3,09,03,09,214,30*4E
$GPRMC,022507.635,A,4740.3138,N,12206.8915,W,14.71,100.23,050403,,*2E
$GPGSA,A,2,14,,,,,,,,,,,,0.0,0.0,0.0*36
$GPGSV,3,1,09,14,75,071,34,11,38,301,,31,21,239,32,25,20,165,*72
$GPGSV,3,2,09,18,17,090,37,23,13,089,38,15,11,143,25,09,10,034,*70
$GPGSV,3,3,09,03,09,214,29*46
$GPRMC,022509.635,A,4740.3112,N,12206.8778,W,19.99,110.33,050403,,*26
$GPGSA,A,2,14,18,23,,,,,,,,,,50.0,50.0,3.2*3F
$GPGSV,3,1,09,14,75,071,34,11,38,301,,31,21,239,36,25,20,165,31*74
$GPGSV,3,2,09,18,17,090,36,23,13,089,38,15,11,143,22,09,10,034,*76
$GPGSV,3,3,09,03,09,214,24*4B
$GPRMC,022511.635,A,4740.3068,N,12206.8613,W,21.27,111.52,050403,,*27
$GPGSA,A,3,14,18,23,15,,,,,,,,,46.5,33.6,32.2*09
$GPGSV,3,1,09,14,75,071,33,11,38,301,,31,21,239,31,25,20,165,30*75
$GPGSV,3,2,09,18,17,090,36,23,13,089,38,15,11,143,36,09,10,034,*73
$GPGSV,3,3,09,03,09,214,24*4B
$GPGSA,A,3,14,18,23,15,,,,,,,,,46.5,33.6,32.2*09
$GPRMC,022514.635,A,4740.2992,N,12206.8363,W,20.83,113.52,050403,,*20
$GPGSV,3,1,09,14,75,071,34,11,38,301,,31,21,239,35,25,20,165,32*74
$GPGSV,3,2,09,18,17,090,35,23,13,089,37,15,11,143,38,09,10,034,*71
$GPGSV,3,3,09,03,09,214,*4D
$GPGSA,A,3,14,18,23,15,,,,,,,,,46.5,33.6,32.2*09
$GPRMC,022516.635,A,4740.2955,N,12206.8242,W,14.34,113.80,050403,,*2F
$GPGSV,3,1,09,14,75,071,33,11,38,301,,31,21,239,36,25,20,165,30*72
$GPGSV,3,2,09,18,17,090,36,23,13,089,38,15,11,143,35,09,10,034,*70
$GPGSV,3,3,09,03,09,214,29*46
$GPGSA,A,3,03,14,31,25,18,23,15,,,,,,2.4,1.5,1.8*36
$GPRMC,022518.634,A,4740.2933,N,12206.8168,W,8.35,113.20,050403,,*1D
$GPGSV,3,1,09,14,75,070,34,11,38,301,,25,21,165,31,31,20,239,35*76
$GPGSV,3,2,09,18,16,090,34,23,13,089,36,15,11,143,35,09,10,034,*7D
$GPGSV,3,3,09,03,09,214,28*47
$GPGSA,A,3,14,31,25,18,23,15,,,,,,,2.5,1.5,2.0*3F
$GPRMC,022520.634,A,4740.2920,N,12206.8117,W,5.45,111.80,050403,,*1E
$GPGSV,3,1,09,14,75,070,32,11,38,301,,25,21,165,33,31,20,239,35*72
$GPGSV,3,2,09,18,16,090,36,23,13,089,36,15,11,143,33,09,10,034,*79
$GPGSV,3,3,09,03,09,214,28*47
$GPGSA,A,3,14,31,25,18,23,15,,,,,,,2.5,1.5,2.0*3F
$GPRMC,022522.634,A,4740.2911,N,12206.8091,W,2.21,110.41,050403,,*18
$GPGSV,3,1,09,14,75,070,34,11,38,301,,25,21,165,29,31,20,239,37*7D
$GPGSV,3,2,09,18,16,090,39,23,13,089,36,15,11,143,39,09,10,034,*7C
$GPGSV,3,3,09,03,09,214,*4D
$GPGSA,A,3,14,31,25,18,23,15,,,,,,,2.5,1.5,2.0*3F
$GPRMC,022524.634,A,4740.2906,N,12206.8083,W,0.17,108.01,050403,,*11
$GPGSV,3,1,09,14,75,070,34,11,38,301,,25,21,165,32,31,20,239,37*77
$GPGSV,3,2,09,18,16,090,37,23,13,089,35,15,11,143,38,09,10,034,*70
$GPGSV,3,3,09,03,09,214,*4D
$GPRMC,022525.634,A,4740.2905,N,12206.8082,W,0.14,326.46,050403,,*1C
$GPGSA,A,3,14,31,25,18,23,15,,,,,,,2.5,1.5,2.0*3F
$GPRMC,022526.634,A,4740.2904,N,12206.8081,W,0.14,321.72,050403,,*1D
$GPGSV,3,1,09,14,75,070,34,11,38,301,,25,21,165,33,31,20,239,38*79
$GPGSV,3,2,09,18,16,090,38,23,13,089,35,15,11,143,39,09,10,034,*7E
$GPGSV,3,3,09,03,09,214,*4D
$GPRMC,022527.634,A,4740.2903,N,12206.8080,W,0.16,329.10,050403,,*14
$GPGSA,A,3,14,31,25,18,23,15,,,,,,,2.5,1.5,2.0*3F
$GPRMC,022528.634,A,4740.2902,N,12206.8079,W,0.10,334.14,050403,,*12
$GPGSV,3,1,09,14,75,070,34,11,38,301,,25,21,165,33,31,20,239,37*76
$GPGSV,3,2,09,18,16,090,38,23,13,089,35,15,11,143,39,09,10,034,*7E
$GPGSV,3,3,09,03,09,214,*4D
$GPRMC,022529.634,A,4740.2901,N,12206.8079,W,0.05,306.28,050403,,*1A
$GPGSA,A,3,14,31,25,18,23,15,,,,,,,2.5,1.5,2.0*3F
$GPRMC,022530.634,A,4740.2900,N,12206.8079,W,0.07,293.08,050403,,*1E
$GPGSV,3,1,09,14,75,070,35,11,38,301,,25,21,165,33,31,20,239,38*78
$GPGSV,3,2,09,18,16,090,38,23,13,089,36,15,11,143,40,09,10,034,*73
$GPGSV,3,3,09,03,09,214,*4D
$GPRMC,022531.634,A,4740.2899,N,12206.8078,W,0.03,312.22,050403,,*1B
$GPGSA,A,3,14,31,25,18,23,15,,,,,,,2.5,1.5,2.0*3F
$GPRMC,022532.633,A,4740.2898,N,12206.8078,W,0.11,342.20,050403,,*1A
$GPGSV,3,1,09,14,75,070,35,11,38,301,,25,21,165,33,31,20,239,37*77
$GPGSV,3,2,09,18,16,090,39,23,13,089,36,15,11,143,39,09,10,034,*7C
$GPGSV,3,3,09,03,09,214,*4D
$GPRMC,022533.633,A,4740.2898,N,12206.8077,W,0.15,350.66,050403,,*11
$GPGSA,A,3,14,31,25,18,23,15,,,,,,,2.5,1.5,2.0*3F
$GPRMC,022534.633,A,4740.2897,N,12206.8077,W,0.10,341.53,050403,,*1A
$GPGSV,3,1,09,14,75,070,33,11,38,301,,25,21,165,33,31,20,239,37*71
$GPGSV,3,2,09,18,16,090,39,23,13,089,35,15,11,143,39,09,10,034,*7F
$GPGSV,3,3,09,03,09,214,*4D
$GPRMC,022535.633,A,4740.2897,N,12206.8077,W,0.14,339.14,050403,,*13
$GPGSA,A,3,14,31,25,18,23,15,,,,,,,2.5,1.5,2.0*3F
$GPRMC,022536.633,A,4740.2896,N,12206.8077,W,0.19,332.49,050403,,*1F
$GPGSV,3,1,09,14,75,070,33,11,38,301,,25,21,165,32,31,20,239,37*70
$GPGSV,3,2,09,18,16,090,39,23,13,089,36,15,11,143,39,09,10,034,*7C
$GPGSV,3,3,09,03,09,214,*4D
$GPRMC,022537.633,A,4740.2896,N,12206.8077,W,0.12,340.32,050403,,*1C
$GPGSA,A,3,14,31,25,18,23,15,,,,,,,2.5,1.5,2.0*3F
$GPRMC,022538.633,A,4740.2895,N,12206.8076,W,0.04,338.15,050403,,*1C
$GPGSV,3,1,09,14,75,070,33,11,38,301,,25,21,165,32,31,20,239,36*71
$GPGSV,3,2,09,18,16,090,37,23,13,089,36,15,11,143,39,09,10,034,*72
$GPGSV,3,3,09,03,09,214,*4D
$GPRMC,022539.633,A,4740.2895,N,12206.8077,W,0.07,335.65,050403,,*15
$GPGSA,A,3,14,31,25,18,23,15,,,,,,,2.5,1.5,2.0*3F
$GPRMC,022540.633,A,4740.2895,N,12206.8077,W,0.12,352.42,050403,,*1B
$GPGSV,3,1,09,14,75,070,33,11,38,301,,25,21,165,32,31,20,239,36*71
$GPGSV,3,2,09,18,16,090,37,23,13,089,36,15,11,143,39,09,10,034,*72
$GPGSV,3,3,09,03,09,214,*4D
$GPRMC,022541.633,A,4740.2894,N,12206.8077,W,0.08,335.22,050403,,*17
$GPGSA,A,3,14,31,25,18,23,15,,,,,,,2.5,1.5,2.0*3F
$GPRMC,022542.633,A,4740.2894,N,12206.8077,W,0.07,315.22,050403,,*19
$GPGSV,3,1,09,14,75,070,32,11,38,301,,25,21,165,33,31,20,239,36*71
$GPGSV,3,2,09,18,16,090,37,23,13,089,36,15,11,143,38,09,10,034,*73
$GPGSV,3,3,09,03,09,214,*4D
$GPRMC,022543.633,A,4740.2894,N,12206.8078,W,0.06,279.41,050403,,*18
$GPGSA,A,3,14,31,25,18,23,15,,,,,,,2.5,1.5,2.0*3F
$GPRMC,022544.633,A,4740.2894,N,12206.8078,W,0.04,206.75,050403,,*12
$GPGSV,3,1,09,14,75,070,32,11,38,301,,25,21,165,33,31,20,239,37*70
$GPGSV,3,2,09,18,16,090,37,23,13,089,36,15,11,143,39,09,10,034,*72
$GPGSV,3,3,09,03,09,214,*4D
$GPRMC,022545.633,A,4740.2894,N,12206.8079,W,0.07,182.13,050403,,*1E
$GPGSA,A,3,14,31,25,18,23,15,,,,,,,2.5,1.5,2.0*3F
$GPRMC,022546.632,A,4740.2894,N,12206.8079,W,0.20,327.82,050403,,*1C
$GPGSV,3,1,09,14,75,070,33,11,38,301,,25,21,165,32,31,20,239,37*70
$GPGSV,3,2,09,18,16,090,38,23,13,089,36,15,11,143,39,09,10,034,*7D
$GPGSV,3,3,09,03,09,214,*4D
$GPRMC,022547.632,A,4740.2895,N,12206.8080,W,0.08,328.60,050403,,*13
$GPGSA,A,3,14,31,25,18,23,15,,,,,,,2.5,1.5,2.0*3F
$GPRMC,022548.632,A,4740.2895,N,12206.8081,W,0.07,291.86,050403,,*19
$GPGSV,3,1,09,14,75,070,33,11,38,301,,25,21,165,33,31,20,239,36*70
$GPGSV,3,2,09,18,16,090,37,23,13,089,36,15,11,143,39,09,10,034,*72
$GPGSV,3,3,09,03,09,214,*4D
$GPRMC,022549.632,A,4740.2896,N,12206.8081,W,0.16,354.35,050403,,*1B
$GPGSA,A,3,14,31,25,18,23,15,,,,,,,2.5,1.5,2.0*3F
$GPRMC,022550.632,A,4740.2897,N,12206.8082,W,0.11,350.49,050403,,*19
$GPGSV,3,1,09,14,75,070,32,11,38,301,,25,21,165,33,31,20,239,36*71
$GPGSV,3,2,09,18,16,090,37,23,13,089,35,15,11,143,38,09,10,034,*70
$GPGSV,3,3,09,03,09,214,*4D
$GPRMC,022551.632,A,4740.2898,N,12206.8083,W,0.09,346.63,050403,,*10
$GPGSA,A,3,14,31,25,18,23,15,,,,,,,2.5,1.5,2.0*3F
$GPRMC,022552.632,A,4740.2899,N,12206.8084,W,0.18,343.13,050403,,*17
$GPGSV,3,1,09,14,75,070,32,11,38,301,,25,21,165,33,31,20,239,36*71
$GPGSV,3,2,09,18,16,090,37,23,13,089,36,15,11,143,39,09,10,034,*72
$GPGSV,3,3,09,03,09,214,*4D
$GPRMC,022553.632,A,4740.2900,N,12206.8085,W,0.01,286.28,050403,,*1E
$GPGSA,A,3,14,31,25,18,23,15,,,,,,,2.5,1.5,2.0*3F
$GPRMC,022554.632,A,4740.2901,N,12206.8086,W,0.12,337.45,050403,,*19
$GPGSV,3,1,09,14,75,070,32,11,38,301,,25,21,165,33,31,20,239,37*70
$GPGSV,3,2,09,18,16,090,37,23,13,089,36,15,11,143,38,09,10,034,*73
$GPGSV,3,3,09,03,08,214,*4C
$GPRMC,022555.632,A,4740.2902,N,12206.8087,W,0.11,329.95,050403,,*1B
$GPGSA,A,3,14,31,25,18,23,15,,,,,,,2.5,1.5,2.0*3F
$GPRMC,022556.632,A,4740.2903,N,12206.8087,W,0.13,331.69,050403,,*11
$GPGSV,3,1,09,14,75,070,33,11,38,301,,25,21,165,33,31,20,239,37*71
$GPGSV,3,2,09,18,16,090,37,23,13,089,35,15,11,143,38,09,10,034,*70
$GPGSV,3,3,09,03,08,214,*4C
$GPRMC,022557.632,A,4740.2905,N,12206.8089,W,0.13,311.82,050403,,*1F
$GPGSA,A,3,14,31,25,18,23,15,,,,,,,2.5,1.5,2.0*3F
$GPRMC,022558.632,A,4740.2907,N,12206.8090,W,0.31,337.73,050403,,*10
$GPGSV,3,1,09,14,75,070,33,11,38,301,,25,21,165,32,31,20,239,36*71
$GPGSV,3,2,09,18,16,090,37,23,13,089,34,15,11,143,37,09,10,034,*7E
$GPGSV,3,3,09,03,08,214,*4C
$GPRMC,022559.632,A,4740.2908,N,12206.8091,W,0.18,334.55,050403,,*13
$GPGSA,A,3,14,31,25,18,23,15,,,,,,,2.5,1.5,2.0*3F
$GPRMC,022600.631,A,4740.2910,N,12206.8091,W,0.16,339.85,050403,,*18
$GPGSV,3,1,09,14,75,070,33,11,38,301,,25,21,165,33,31,20,239,36*70
$GPGSV,3,2,09,18,16,090,37,23,13,089,35,15,11,143,38,09,10,034,*70
$GPGSV,3,3,09,03,08,214,*4C
$GPRMC,022601.631,A,4740.2912,N,12206.8092,W,0.19,343.51,050403,,*13
$GPGSA,A,3,14,31,25,18,23,15,,,,,,,2.5,1.5,2.0*3F
$GPRMC,022602.631,A,4740.2913,N,12206.8093,W,0.09,331.05,050403,,*15
$GPGSV,3,1,09,14,75,070,33,11,38,301,,25,21,165,33,31,20,239,36*70
$GPGSV,3,2,09,18,16,090,37,23,13,089,35,15,11,143,37,09,10,034,*7F
$GPGSV,3,3,09,03,08,214,*4C
$GPRMC,022603.631,A,4740.2914,N,12206.8093,W,0.19,334.66,050403,,*12
$GPGSA,A,3,14,31,25,18,23,15,,,,,,,2.5,1.5,2.0*3F
$GPRMC,022604.631,A,4740.2916,N,12206.8094,W,0.13,336.57,050403,,*1A
$GPGSV,3,1,09,14,75,070,32,11,38,301,,25,21,165,33,31,20,239,36*71
$GPGSV,3,2,09,18,16,090,37,23,13,089,35,15,11,143,37,09,10,034,*7F
$GPGSV,3,3,09,03,08,214,*4C
$GPRMC,022605.631,A,4740.2916,N,12206.8094,W,0.03,333.13,050403,,*1F
$GPGSA,A,3,14,31,25,18,23,15,,,,,,,2.5,1.5,2.0*3F
$GPRMC,022606.631,A,4740.2917,N,12206.8094,W,0.13,357.20,050403,,*1E
$GPGSV,3,1,09,14,75,069,33,11,38,301,,25,21,165,33,31,20,239,37*79
$GPGSV,3,2,09,18,16,090,36,23,13,089,35,15,11,143,37,09,09,034,*76
$GPGSV,3,3,09,03,08,214,*4C
$GPRMC,022607.631,A,4740.2919,N,12206.8094,W,0.26,345.82,050403,,*1C
$GPGSA,A,3,14,31,25,18,23,15,,,,,,,2.5,1.5,2.0*3F
$GPRMC,022608.631,A,4740.2919,N,12206.8094,W,0.16,343.84,050403,,*10
$GPGSV,3,1,09,14,75,069,33,11,38,301,,25,21,165,30,31,20,239,37*7A
$GPGSV,3,2,09,18,16,090,36,23,13,089,34,15,11,143,36,09,09,034,*76
$GPGSV,3,3,09,03,08,214,*4C
$GPRMC,022609.631,A,4740.2921,N,12206.8095,W,0.22,352.84,050403,,*1C
$GPGSA,A,3,14,31,25,18,23,15,,,,,,,2.5,1.5,2.0*3F
$GPRMC,022610.631,A,4740.2921,N,12206.8095,W,0.20,0.37,050403,,*1A
$GPGSV,3,1,09,14,75,069,33,11,38,301,,25,21,165,31,31,20,239,37*7B
$GPGSV,3,2,09,18,16,090,35,23,13,089,34,15,11,143,36,09,09,034,*75
$GPGSV,3,3,09,03,08,214,*4C
$GPRMC,022611.631,A,4740.2922,N,12206.8095,W,0.21,359.64,050403,,*10
$GPGSA,A,3,14,31,25,18,23,15,,,,,,,2.5,1.5,2.0*3F
$GPRMC,022612.631,A,4740.2923,N,12206.8095,W,0.19,342.39,050403,,*1B
$GPGSV,3,1,09,14,75,069,34,11,38,301,,25,21,165,32,31,20,239,37*7F
$GPGSV,3,2,09,18,16,090,35,23,13,089,35,15,11,143,37,09,09,034,*75
$GPGSV,3,3,09,03,08,214,*4C
$GPRMC,022613.631,A,4740.2924,N,12206.8095,W,0.08,340.97,050403,,*1B
$GPGSA,A,3,14,31,25,18,23,15,,,,,,,2.5,1.5,2.0*3F
$GPRMC,022614.631,A,4740.2923,N,12206.8094,W,0.29,105.31,050403,,*16
$GPGSV,3,1,09,14,75,069,32,11,38,301,,25,21,165,33,31,20,239,35*7A
$GPGSV,3,2,09,18,16,090,36,23,13,089,35,15,11,143,38,09,09,034,*79
$GPGSV,3,3,09,03,08,214,*4C
$GPRMC,022615.630,A,4740.2922,N,12206.8089,W,1.28,111.82,050403,,*16
$GPGSA,A,3,14,31,25,18,23,15,,,,,,,2.5,1.5,2.0*3F
$GPRMC,022616.630,A,4740.2919,N,12206.8075,W,3.44,107.85,050403,,*16
$GPGSV,3,1,09,14,75,069,32,11,38,301,,25,21,165,29,31,20,239,37*73
$GPGSV,3,2,09,18,16,090,38,23,13,089,36,15,11,143,34,09,09,034,31*7A
$GPGSV,3,3,09,03,08,214,26*48
$GPRMC,022617.630,A,4740.2912,N,12206.8048,W,7.16,111.47,050403,,*18
$GPGSA,A,3,14,31,25,18,23,15,09,,,,,,1.9,1.0,1.6*39
$GPRMC,022618.630,A,4740.2901,N,12206.8009,W,10.24,111.70,050403,,*23
$GPGSV,3,1,09,14,75,069,34,11,38,300,,25,21,165,32,31,20,239,36*7F
$GPGSV,3,2,09,18,16,090,37,23,13,090,38,15,11,143,23,09,09,034,31*75
$GPGSV,3,3,09,03,08,213,25*4C
$GPRMC,022619.630,A,4740.2886,N,12206.7961,W,12.96,115.01,050403,,*2D
$GPGSA,A,3,03,14,31,25,18,23,09,,,,,,1.8,1.1,1.5*3D
$GPRMC,022620.630,A,4740.2871,N,12206.7906,W,14.62,111.57,050403,,*24
$GPGSV,3,1,09,14,75,069,29,11,38,300,,25,21,165,27,31,20,239,32*73
$GPGSV,3,2,09,18,16,090,32,23,13,090,34,15,11,143,30,09,09,034,25*7B
$GPGSV,3,3,09,03,08,213,28*41
$GPRMC,022621.630,A,4740.2855,N,12206.7850,W,14.52,112.09,050403,,*2A
$GPGSA,A,3,14,31,25,18,23,15,,,,,,,2.5,1.5,2.0*3F
$GPRMC,022622.630,A,4740.2838,N,12206.7788,W,16.39,112.68,050403,,*20
$GPGSV,3,1,09,14,75,069,32,11,38,300,,25,21,165,30,31,20,239,31*7C
$GPGSV,3,2,09,18,16,090,36,23,13,090,37,15,11,143,29,09,09,034,23*72
$GPGSV,3,3,09,03,08,213,28*41
$GPRMC,022623.630,A,4740.2817,N,12206.7717,W,18.97,113.08,050403,,*27
$GPGSA,A,3,14,31,18,23,15,,,,,,,,2.9,2.0,2.1*33
$GPRMC,022624.630,A,4740.2789,N,12206.7637,W,21.72,116.73,050403,,*23
$GPGSV,3,1,09,14,75,069,32,11,38,300,,25,21,165,25,31,20,239,37*7E
$GPGSV,3,2,09,18,16,090,37,23,13,090,37,15,11,143,33,09,09,034,23*78
$GPGSV,3,3,09,03,08,213,28*41
$GPRMC,022625.630,A,4740.2764,N,12206.7553,W,22.23,113.67,050403,,*27
$GPGSA,A,3,14,31,18,23,15,,,,,,,,2.9,2.0,2.1*33
$GPRMC,022626.630,A,4740.2738,N,12206.7465,W,23.52,113.47,050403,,*2C
$GPGSV,3,1,09,14,75,069,29,11,38,300,,25,21,165,30,31,20,239,33*74
$GPGSV,3,2,09,18,16,090,37,23,13,090,38,15,11,143,34,09,09,034,23*70
$GPGSV,3,3,09,03,08,213,23*4A
$GPRMC,022627.630,A,4740.2711,N,12206.7374,W,24.10,113.50,050403,,*26
$GPGSA,A,3,14,31,25,18,23,15,,,,,,,2.5,1.5,1.9*35
$GPRMC,022628.630,A,4740.2685,N,12206.7282,W,24.10,111.72,050403,,*2F
$GPGSV,3,1,09,14,75,069,31,11,38,300,,25,21,165,28,31,20,239,36*71
$GPGSV,3,2,09,18,16,090,36,23,13,090,38,15,11,143,32,09,09,034,*76
$GPGSV,3,3,09,03,08,213,28*41
$GPRMC,022629.629,A,4740.2659,N,12206.7191,W,23.78,112.56,050403,,*2A
$GPGSA,A,3,14,31,18,23,15,,,,,,,,2.9,2.0,2.1*33
$GPRMC,022630.629,A,4740.2635,N,12206.7098,W,24.04,110.65,050403,,*2E
$GPGSV,3,1,09,14,75,069,31,11,38,300,,25,21,165,26,31,20,239,35*7C
$GPGSV,3,2,09,18,16,090,37,23,13,090,36,15,11,143,34,09,09,034,*7F
$GPGSV,3,3,09,03,08,213,24*4D
$GPRMC,022631.629,A,4740.2608,N,12206.7003,W,24.86,112.70,050403,,*2F
$GPGSA,A,3,14,31,18,23,15,,,,,,,,2.9,2.0,2.1*33
$GPRMC,022632.629,A,4740.2579,N,12206.6906,W,25.47,113.33,050403,,*2E
$GPGSV,3,1,09,14,75,069,31,11,38,300,,25,21,165,28,31,20,239,35*72
$GPGSV,3,2,09,18,16,090,35,23,13,090,37,15,11,143,37,09,09,034,31*7D
$GPGSV,3,3,09,03,08,213,30*48
$GPRMC,022633.629,A,4740.2551,N,12206.6808,W,25.78,113.08,050403,,*2E
$GPGSA,A,3,14,31,18,23,15,,,,,,,,2.9,2.0,2.1*33
$GPRMC,022634.629,A,4740.2521,N,12206.6709,W,26.14,113.31,050403,,*23
$GPGSV,3,1,09,14,75,069,31,11,38,300,,25,21,165,28,31,20,239,36*71
$GPGSV,3,2,09,18,16,090,36,23,13,090,37,15,11,143,36,09,09,034,26*79
$GPGSV,3,3,09,03,08,213,28*41
$GPRMC,022635.629,A,4740.2491,N,12206.6608,W,26.56,113.33,050403,,*2C
$GPGSA,A,3,14,31,18,23,15,,,,,,,,2.9,2.0,2.1*33
$GPRMC,022636.629,A,4740.2461,N,12206.6506,W,26.90,113.14,050403,,*22
$GPGSV,3,1,09,14,75,069,31,11,38,300,,25,21,165,24,31,20,239,35*7E
$GPGSV,3,2,09,18,16,090,36,23,13,090,37,15,11,143,33,09,09,034,31*7A
$GPGSV,3,3,09,03,08,213,25*4C
$GPRMC,022637.629,A,4740.2431,N,12206.6402,W,27.26,112.86,050403,,*25
$GPGSA,A,3,14,31,18,23,15,09,,,,,,,1.9,1.1,1.6*3F
$GPRMC,022638.629,A,4740.2394,N,12206.6294,W,29.29,117.06,050403,,*27
$GPGSV,3,1,09,14,75,069,31,11,38,300,,25,21,165,26,31,20,239,36*7F
$GPGSV,3,2,09,18,16,090,36,23,13,090,37,15,11,143,28,09,09,034,31*70
$GPGSV,3,3,09,03,08,213,*4B
$GPRMC,022639.629,A,4740.2357,N,12206.6187,W,28.94,116.90,050403,,*21
$GPGSA,A,3,14,31,18,23,,,,,,,,,50.0,50.0,21.9*07
$GPRMC,022640.629,A,4740.2322,N,12206.6082,W,28.24,116.41,050403,,*2E
$GPGSV,3,1,09,14,75,069,28,11,38,300,,25,21,165,24,31,20,239,36*75
$GPGSV,3,2,09,18,16,090,36,23,13,090,36,15,11,143,35,09,09,034,31*7D
$GPGSV,3,3,09,03,08,213,*4B
$GPRMC,022641.629,A,4740.2291,N,12206.5982,W,26.48,114.14,050403,,*2A
$GPGSA,A,3,14,31,18,23,15,,,,,,,,2.9,2.0,2.1*33
$GPRMC,022642.629,A,4740.2266,N,12206.5887,W,24.62,112.05,050403,,*29
$GPGSV,3,1,09,14,75,069,31,11,38,300,,25,21,165,23,31,20,239,25*78
$GPGSV,3,2,09,18,16,090,36,23,13,090,36,15,11,143,24,09,09,034,*7F
$GPGSV,3,3,09,03,08,213,*4B
$GPRMC,022643.628,A,4740.2241,N,12206.5798,W,23.11,112.58,050403,,*26
$GPGSA,A,3,14,31,18,23,,,,,,,,,50.0,50.0,21.9*07
$GPRMC,022644.628,A,4740.2215,N,12206.5717,W,21.47,115.11,050403,,*2C
$GPGSV,3,1,09,14,75,069,34,11,38,300,,25,21,165,24,31,20,239,32*7C
$GPGSV,3,2,09,18,16,090,38,23,13,090,37,15,11,143,24,09,09,034,*70
$GPGSV,3,3,09,03,08,213,*4B
$GPRMC,022645.628,A,4740.2190,N,12206.5643,W,19.88,117.64,050403,,*2B
$GPGSA,A,3,14,18,23,15,,,,,,,,,46.4,33.6,32.1*0B
$GPRMC,022646.628,A,4740.2165,N,12206.5575,W,18.68,118.98,050403,,*27
$GPGSV,3,1,09,14,75,069,31,11,38,300,32,25,21,165,24,31,20,239,25*7E
$GPGSV,3,2,09,18,16,090,37,23,13,090,38,15,11,143,34,09,09,034,*71
$GPGSV,3,3,09,03,08,213,*4B
$GPRMC,022647.628,A,4740.2140,N,12206.5518,W,16.18,123.65,050403,,*29
$GPGSA,A,3,11,14,18,23,15,,,,,,,,2.6,1.7,2.0*3B
$GPRMC,022648.628,A,4740.2118,N,12206.5469,W,13.88,123.93,050403,,*29
$GPGSV,3,1,09,14,75,069,31,11,39,300,31,25,21,165,,31,20,239,25*7A
$GPGSV,3,2,09,18,16,090,38,23,13,090,39,15,11,144,35,09,09,033,*7E
$GPGSV,3,3,09,03,08,213,*4B
$GPRMC,022649.628,A,4740.2101,N,12206.5429,W,11.05,122.14,050403,,*2D
$GPGSA,A,3,14,25,18,23,15,,,,,,,,22.5,16.3,15.5*0C
$GPRMC,022650.628,A,4740.2089,N,12206.5394,W,8.63,115.30,050403,,*1F
$GPGSV,3,1,09,14,75,069,27,11,39,300,25,25,21,165,24,31,20,239,*79
$GPGSV,3,2,09,18,16,090,35,23,13,090,35,15,11,144,36,09,09,033,*7C
$GPGSV,3,3,09,03,08,213,*4B
$GPRMC,022651.628,A,4740.2077,N,12206.5362,W,8.25,117.26,050403,,*11
$GPGSA,A,3,14,18,23,15,,,,,,,,,46.4,33.6,32.1*0B
$GPRMC,022652.628,A,4740.2073,N,12206.5351,W,2.78,117.96,050403,,*1F
$GPGSV,3,1,09,14,75,069,29,11,39,300,26,25,21,165,29,31,20,239,29*72
$GPGSV,3,2,09,18,16,090,34,23,13,090,37,15,11,144,37,09,09,033,*7E
$GPGSV,3,3,09,03,08,213,*4B
$GPRMC,022653.628,A,4740.2068,N,12206.5340,W,2.67,120.08,050403,,*19
$GPGSA,A,3,14,25,18,23,15,,,,,,,,22.7,16.4,15.7*0B
$GPRMC,022654.628,A,4740.2063,N,12206.5326,W,3.45,113.26,050403,,*18
$GPGSV,3,1,09,14,75,069,31,11,39,300,28,25,21,165,28,31,20,239,29*74
$GPGSV,3,2,09,18,16,090,34,23,13,090,36,15,11,144,36,09,09,033,*7E
$GPGSV,3,3,09,03,08,213,*4B
$GPRMC,022655.628,A,4740.2058,N,12206.5314,W,3.06,114.46,050403,,*16
$GPGSA,A,3,14,18,23,15,,,,,,,,,46.4,33.6,32.0*0A
$GPRMC,022656.628,A,4740.2051,N,12206.5298,W,4.16,119.82,050403,,*1A
$GPGSV,3,1,09,14,75,069,31,11,39,300,30,25,21,165,30,31,20,239,*7F
$GPGSV,3,2,09,18,16,090,36,23,13,090,36,15,11,144,37,09,09,033,25*7A
$GPGSV,3,3,09,03,08,213,*4B
$GPRMC,022657.627,A,4740.2042,N,12206.5275,W,6.13,116.86,050403,,*19
$GPGSA,A,2,18,23,15,,,,,,,,,,50.0,50.0,3.2*3E
$GPRMC,022658.627,A,4740.2032,N,12206.5252,W,6.27,117.81,050403,,*15
$GPGSV,3,1,09,14,75,069,29,11,39,300,26,25,21,165,31,31,20,239,30*73
$GPGSV,3,2,09,18,16,090,36,23,13,090,37,15,11,144,36,09,09,033,24*7B
$GPGSV,3,3,09,03,08,213,27*4E
$GPRMC,022659.627,A,4740.2026,N,12206.5238,W,4.07,116.94,050403,,*18
$GPGSA,A,3,11,14,31,18,23,15,,,,,,,2.4,1.4,1.9*32
$GPGSV,3,1,09,14,75,069,31,11,39,300,28,25,21,165,24,31,20,239,33*73
$GPGSV,3,2,09,18,16,090,35,23,13,090,39,15,11,144,35,09,09,033,23*72
$GPGSV,3,3,09,03,08,213,31*49
$GPGSA,A,3,03,14,31,18,23,15,,,,,,,2.9,2.0,2.1*30
$GPRMC,022702.627,A,4740.2018,N,12206.5229,W,0.37,149.68,050403,,*14
$GPGSV,3,1,09,14,75,069,33,11,39,300,28,25,21,165,24,31,20,239,33*71
$GPGSV,3,2,09,18,16,090,35,23,13,090,39,15,11,144,34,09,09,033,23*73
$GPGSV,3,3,09,03,08,213,31*49
$GPGSA,A,3,11,03,14,31,18,23,15,,,,,,2.3,1.3,1.9*31
$GPRMC,022704.627,A,4740.2015,N,12206.5232,W,0.46,161.08,050403,,*1F
$GPGSV,3,1,09,14,75,069,32,11,39,300,30,25,21,165,,31,20,239,33*7F
$GPGSV,3,2,09,18,16,090,35,23,13,090,38,15,11,144,34,09,09,033,*73
$GPGSV,3,3,09,03,08,213,30*48
$GPGSA,A,3,11,03,14,31,18,23,15,,,,,,2.3,1.3,1.9*31
$GPRMC,022706.627,A,4740.2011,N,12206.5236,W,0.08,177.98,050403,,*19
$GPGSV,3,1,09,14,75,069,32,11,39,300,31,25,21,165,,31,20,239,33*7E
$GPGSV,3,2,09,18,16,090,36,23,13,090,39,15,11,144,35,09,09,033,*70
$GPGSV,3,3,09,03,08,213,31*49
$GPGSA,A,3,11,03,14,31,18,23,15,,,,,,2.3,1.3,1.9*31
$GPRMC,022708.627,A,4740.2008,N,12206.5239,W,0.09,161.67,050403,,*16
$GPGSV,3,1,09,14,75,069,32,11,39,300,28,25,21,165,,31,20,239,34*71
$GPGSV,3,2,09,18,16,090,35,23,13,090,38,15,11,144,35,09,09,033,*72
$GPGSV,3,3,09,03,08,213,31*49
$GPGSA,A,3,11,03,14,31,18,23,15,,,,,,2.3,1.3,1.9*31
$GPRMC,022710.627,A,4740.2007,N,12206.5242,W,0.16,346.84,050403,,*18
$GPGSV,3,1,09,14,75,069,33,11,39,300,29,25,21,165,,31,20,239,34*71
$GPGSV,3,2,09,18,16,090,36,23,13,090,38,15,11,144,35,09,09,033,*71
$GPGSV,3,3,09,03,08,213,32*4A
$GPGSA,A,3,03,14,31,18,23,15,,,,,,,2.9,2.0,2.1*30
$GPRMC,022712.626,A,4740.2005,N,12206.5245,W,0.04,135.28,050403,,*1D
$GPGSV,3,1,09,14,75,069,34,11,39,300,25,25,21,165,,31,20,239,36*78
$GPGSV,3,2,09,18,16,090,37,23,13,090,39,15,11,144,36,09,09,033,*72
$GPGSV,3,3,09,03,08,213,32*4A
$GPGSA,A,3,03,14,31,18,23,15,,,,,,,2.9,2.0,2.1*30
$GPRMC,022714.626,A,4740.2004,N,12206.5247,W,0.07,177.31,050403,,*15
$GPGSV,3,1,09,14,75,069,34,11,39,300,26,25,21,165,,31,20,239,36*7B
$GPGSV,3,2,09,18,16,090,38,23,13,090,39,15,11,144,36,09,09,033,*7D
$GPGSV,3,3,09,03,08,213,31*49
$GPRMC,022715.626,A,4740.2003,N,12206.5248,W,0.10,167.21,050403,,*1A
$GPGSA,A,3,03,14,31,18,23,15,,,,,,,2.9,2.0,2.1*30
$GPRMC,022716.626,A,4740.2003,N,12206.5249,W,0.06,105.12,050403,,*1B
$GPGSV,3,1,09,14,75,069,33,11,39,300,26,25,21,165,,31,20,239,34*7E
$GPGSV,3,2,09,18,16,090,36,23,13,090,38,15,11,144,34,09,09,033,*70
$GPGSV,3,3,09,03,08,213,29*40
$GPRMC,022717.626,A,4740.2003,N,12206.5250,W,0.07,205.00,050403,,*13
$GPGSA,A,3,03,14,31,18,23,15,,,,,,,2.9,2.0,2.1*30
$GPRMC,022718.626,A,4740.2002,N,12206.5251,W,0.06,213.08,050403,,*12
$GPGSV,3,1,09,14,75,069,32,11,39,300,27,25,21,165,,31,20,239,35*7F
$GPGSV,3,2,09,18,16,090,36,23,13,090,38,15,11,144,34,09,09,033,*70
$GPGSV,3,3,09,03,08,213,30*48
$GPRMC,022719.626,A,4740.2002,N,12206.5252,W,0.01,359.07,050403,,*17
$GPGSA,A,3,03,14,31,18,23,15,,,,,,,2.9,2.0,2.1*30
$GPRMC,022720.626,A,4740.2002,N,12206.5253,W,0.05,260.95,050403,,*18
$GPGSV,3,1,09,14,75,069,32,11,39,300,25,25,21,165,,31,20,239,34*7C
$GPGSV,3,2,09,18,16,090,36,23,13,090,39,15,11,144,33,09,09,033,*76
$GPGSV,3,3,09,03,08,213,28*41
$GPRMC,022721.626,A,4740.2002,N,12206.5253,W,0.05,189.85,050403,,*1C
$GPGSA,A,3,11,03,14,31,18,23,15,,,,,,2.3,1.3,1.9*31
$GPRMC,022722.626,A,4740.2002,N,12206.5255,W,0.26,321.35,050403,,*13
$GPGSV,3,1,09,14,75,069,32,11,39,300,27,25,21,165,,31,20,239,35*7F
$GPGSV,3,2,09,18,16,090,35,23,13,090,37,15,11,144,34,09,09,033,*7C
$GPGSV,3,3,09,03,08,213,29*40
$GPRMC,022723.626,A,4740.2002,N,12206.5255,W,0.25,108.88,050403,,*1E
$GPGSA,A,3,14,31,18,23,15,,,,,,,,3.0,2.0,2.1*3B
$GPRMC,022724.626,A,4740.2001,N,12206.5253,W,0.66,115.77,050403,,*17
$GPGSV,3,1,09,14,75,069,31,11,39,300,30,25,21,165,,31,20,239,36*79
$GPGSV,3,2,09,18,16,090,34,23,13,090,36,15,11,144,33,09,09,033,*7B
$GPGSV,3,3,09,03,08,213,25*4C
$GPRMC,022725.625,A,4740.2001,N,12206.5253,W,0.29,28.75,050403,,*23
$GPGSA,A,3,14,31,18,23,15,,,,,,,,3.0,2.0,2.1*3B
$GPRMC,022726.625,A,4740.2002,N,12206.5254,W,0.16,346.79,050403,,*1F
$GPGSV,3,1,09,14,75,069,32,11,39,300,23,25,21,165,,31,20,239,36*78
$GPGSV,3,2,09,18,16,090,33,23,13,090,36,15,11,144,29,09,09,033,*77
$GPGSV,3,3,09,03,08,213,21*48
$GPRMC,022727.625,A,4740.2002,N,12206.5255,W,0.16,355.95,050403,,*1F
$GPGSA,A,3,14,31,18,23,15,,,,,,,,3.0,2.0,2.1*3B
$GPRMC,022728.625,A,4740.2002,N,12206.5255,W,0.04,333.85,050403,,*12
$GPGSV,3,1,09,14,75,069,31,11,39,300,30,25,21,165,,31,20,239,36*79
$GPGSV,3,2,09,18,16,090,32,23,13,090,37,15,11,144,31,09,09,033,*7E
$GPGSV,3,3,09,03,08,213,21*48
$GPRMC,022729.625,A,4740.2001,N,12206.5256,W,0.27,179.84,050403,,*1F
$GPGSA,A,3,14,31,18,23,15,,,,,,,,3.0,2.1,2.1*3A
$GPRMC,022730.625,A,4740.2002,N,12206.5256,W,0.55,354.21,050403,,*13
$GPGSV,3,1,09,14,75,069,32,11,39,300,,25,21,165,,31,20,239,34*7B
$GPGSV,3,2,09,18,16,090,34,23,13,090,37,15,11,144,33,09,09,033,*7A
$GPGSV,3,3,09,03,08,213,28*41
$GPRMC,022731.625,A,4740.2000,N,12206.5252,W,1.39,119.84,050403,,*1B
$GPGSA,A,3,03,14,31,18,23,15,,,,,,,2.9,2.0,2.1*30
$GPRMC,022732.625,A,4740.1995,N,12206.5239,W,3.79,119.17,050403,,*1F
$GPGSV,3,1,09,14,75,069,32,11,39,300,,25,21,165,28,31,20,239,35*70
$GPGSV,3,2,09,18,16,090,36,23,13,090,38,15,11,144,37,09,09,033,*73
$GPGSV,3,3,09,03,08,213,32*4A
$GPRMC,022733.625,A,4740.1989,N,12206.5224,W,4.40,119.82,050403,,*1E
$GPGSA,A,3,31,18,23,15,,,,,,,,,27.6,4.4,27.3*39
$GPRMC,022734.625,A,4740.1981,N,12206.5206,W,5.42,122.48,050403,,*1C
$GPGSV,3,1,09,14,75,069,31,11,39,300,33,25,21,165,37,31,20,239,33*7B
$GPGSV,3,2,09,18,16,090,35,23,13,090,36,15,11,144,38,09,09,033,*71
$GPGSV,3,3,09,03,08,213,25*4C
$GPRMC,022735.625,A,4740.1965,N,12206.5183,W,8.02,133.45,050403,,*1D
$GPGSA,A,2,31,23,15,,,,,,,,,,3.8,2.1,3.2*3D
$GPRMC,022736.625,A,4740.1948,N,12206.5167,W,7.41,148.29,050403,,*15
$GPGSV,3,1,09,14,75,069,36,11,39,300,39,25,21,165,37,31,20,239,27*73
$GPGSV,3,2,09,18,16,090,31,23,13,090,28,15,11,144,38,09,09,033,31*78
$GPGSV,3,3,09,03,08,213,34*4C
$GPRMC,022737.625,A,4740.1909,N,12206.5158,W,13.93,170.71,050403,,*21
$GPGSA,A,3,11,03,14,25,18,23,15,09,,,,,1.7,0.9,1.5*3D
$GPGSV,3,1,09,14,75,069,39,11,39,300,37,25,21,165,37,31,20,239,36*72
$GPGSV,3,2,09,18,16,090,35,23,13,090,32,15,11,144,32,09,09,033,28*75
$GPGSV,3,3,09,03,08,213,35*4D
$GPGSA,A,3,11,03,14,31,25,18,15,,,,,,2.3,1.2,2.0*3C
$GPRMC,022740.624,A,4740.1732,N,12206.5252,W,26.24,203.59,050403,,*28
$GPGSV,3,1,09,14,75,069,37,11,39,300,35,25,21,165,33,31,20,239,34*78
$GPGSV,3,2,09,18,16,090,28,23,13,090,29,15,11,144,31,09,09,033,28*70
$GPGSV,3,3,09,03,08,213,37*4F
$GPGSA,A,3,11,03,14,31,25,18,23,15,09,,,,1.7,0.8,1.4*3F
$GPRMC,022742.624,A,4740.1583,N,12206.5354,W,29.19,205.42,050403,,*28
$GPGSV,3,1,09,14,75,069,37,11,39,300,36,25,21,165,34,31,20,239,34*7C
$GPGSV,3,2,09,18,16,090,33,23,13,090,33,15,11,144,26,09,09,033,31*7F
$GPGSV,3,3,09,03,08,213,37*4F
$GPGSA,A,3,11,03,14,31,25,18,23,09,,,,,1.7,0.9,1.4*3A
$GPRMC,022744.624,A,4740.1428,N,12206.5471,W,32.04,207.53,050403,,*2A
$GPGSV,3,1,09,14,75,069,36,11,39,300,36,25,21,165,34,31,20,239,32*7B
$GPGSV,3,2,09,18,16,090,33,23,13,090,34,15,11,144,22,09,09,033,32*7F
$GPGSV,3,3,09,03,08,213,38*40
$GPGSA,A,3,11,03,14,31,25,18,23,09,,,,,1.7,0.9,1.4*3A
$GPRMC,022746.624,A,4740.1261,N,12206.5605,W,34.29,208.78,050403,,*2D
$GPGSV,3,1,09,14,75,069,35,11,39,300,34,25,21,165,33,31,20,239,30*7F
$GPGSV,3,2,09,18,16,090,30,23,13,090,32,15,11,144,28,09,09,033,30*72
$GPGSV,3,3,09,03,08,213,39*41
$GPGSA,A,3,11,03,14,25,23,09,,,,,,,1.8,1.0,1.5*37
$GPRMC,022748.624,A,4740.1092,N,12206.5749,W,34.47,210.34,050403,,*2D
$GPGSV,3,1,09,14,74,068,37,11,39,300,34,25,22,165,35,31,20,238,30*79
$GPGSV,3,2,09,18,16,091,37,23,12,090,29,15,10,144,26,09,09,033,26*77
$GPGSV,3,3,09,03,08,213,37*4F
$GPGSA,A,3,11,03,14,31,25,18,23,,,,,,2.1,1.2,1.8*30
$GPRMC,022750.624,A,4740.0928,N,12206.5914,W,35.81,215.77,050403,,*22
$GPGSV,3,1,09,14,74,068,38,11,39,300,36,25,22,165,34,31,20,238,37*72
$GPGSV,3,2,09,18,16,091,34,23,12,090,33,15,10,144,26,09,09,033,30*78
$GPGSV,3,3,09,03,08,213,37*4F
$GPGSA,A,3,11,03,14,31,25,23,09,,,,,,1.7,1.0,1.4*3B
$GPRMC,022752.624,A,4740.0772,N,12206.6122,W,38.13,224.49,050403,,*26
$GPGSV,3,1,09,14,74,068,38,11,39,300,36,25,22,165,26,31,20,238,36*70
$GPGSV,3,2,09,18,16,091,34,23,12,090,28,15,10,144,,09,09,033,32*74
$GPGSV,3,3,09,03,08,213,38*40
$GPRMC,022753.624,A,4740.0698,N,12206.6243,W,39.43,228.42,050403,,*25
$GPGSA,A,3,11,03,14,31,23,09,,,,,,,1.9,1.2,1.5*31
$GPRMC,022754.623,A,4740.0628,N,12206.6375,W,40.74,232.03,050403,,*2E
$GPGSV,3,1,09,14,74,068,35,11,39,300,36,25,22,165,26,31,20,238,36*7D
$GPGSV,3,2,09,18,16,091,33,23,12,090,33,15,10,144,,09,09,033,29*73
$GPGSV,3,3,09,03,08,213,34*4C
$GPRMC,022755.623,A,4740.0561,N,12206.6519,W,42.13,235.87,050403,,*25
$GPGSA,A,3,11,03,14,31,25,18,23,,,,,,2.1,1.2,1.8*30
$GPRMC,022756.623,A,4740.0498,N,12206.6674,W,43.82,239.68,050403,,*2D
$GPGSV,3,1,09,14,74,068,34,11,39,300,29,25,22,165,36,31,20,238,37*72
$GPGSV,3,2,09,18,16,091,28,23,12,090,27,15,10,144,,09,09,033,25*70
$GPGSV,3,3,09,03,08,213,36*4E
$GPRMC,022757.623,A,4740.0443,N,12206.6845,W,45.92,244.87,050403,,*2A
$GPGSA,A,3,11,03,14,31,25,18,23,,,,,,2.1,1.2,1.8*30
$GPRMC,022758.623,A,4740.0396,N,12206.7027,W,47.26,249.38,050403,,*23
$GPGSV,3,1,09,14,74,068,35,11,39,300,34,25,22,165,30,31,20,238,37*79
$GPGSV,3,2,09,18,16,091,28,23,12,090,25,15,10,144,,09,09,033,25*72
$GPGSV,3,3,09,03,08,213,35*4D
$GPRMC,022759.623,A,4740.0358,N,12206.7219,W,48.59,253.81,050403,,*21
$GPGSA,A,3,11,03,14,31,,,,,,,,,9.2,4.9,7.7*30
$GPRMC,022800.623,A,4740.0326,N,12206.7422,W,50.57,257.25,050403,,*28
$GPGSV,3,1,09,14,74,068,37,11,39,300,38,25,22,165,32,31,20,238,36*74
$GPGSV,3,2,09,18,16,091,30,23,12,090,31,15,10,144,35,09,09,033,*7F
$GPGSV,3,3,09,03,08,213,35*4D
$GPRMC,022801.623,A,4740.0305,N,12206.7629,W,50.74,261.95,050403,,*2E
$GPGSA,A,3,11,03,14,31,25,18,23,15,,,,,2.1,1.1,1.8*37
$GPRMC,022802.623,A,4740.0293,N,12206.7839,W,50.97,265.34,050403,,*2E
$GPGSV,3,1,09,14,74,068,38,11,39,300,38,25,22,165,35,31,20,238,36*7C
$GPGSV,3,2,09,18,16,091,32,23,12,090,31,15,10,144,35,09,09,033,*7D
$GPGSV,3,3,09,03,08,213,32*4A
$GPRMC,022803.623,A,4740.0286,N,12206.8053,W,51.71,267.89,050403,,*2D
$GPGSA,A,3,11,03,14,31,25,18,15,,,,,,2.3,1.3,2.0*3D
$GPRMC,022804.623,A,4740.0286,N,12206.8270,W,52.43,269.91,050403,,*2C
$GPGSV,3,1,09,14,74,068,39,11,39,300,38,25,22,165,34,31,20,238,35*7F
$GPGSV,3,2,09,18,16,091,27,23,12,090,27,15,10,144,24,09,09,033,*7E
$GPGSV,3,3,09,03,08,213,36*4E
$GPRMC,022805.623,A,4740.0287,N,12206.8491,W,53.27,270.65,050403,,*25
$GPGSA,A,3,11,03,14,31,25,,,,,,,,7.5,4.0,6.4*35
$GPRMC,022806.623,A,4740.0289,N,12206.8714,W,53.87,270.86,050403,,*21
$GPGSV,3,1,09,14,74,068,40,11,39,300,38,25,22,165,34,31,20,238,38*7C
$GPGSV,3,2,09,18,16,091,28,23,12,090,26,15,10,144,24,09,09,033,*70
$GPGSV,3,3,09,03,08,213,25*4C
$GPRMC,022807.623,A,4740.0290,N,12206.8940,W,54.61,270.58,050403,,*2B
$GPGSA,A,3,11,03,14,31,25,18,,,,,,,2.4,1.3,2.0*3E
$GPRMC,022808.622,A,4740.0292,N,12206.9168,W,54.95,270.52,050403,,*25
$GPGSV,3,1,09,14,74,068,39,11,39,300,37,25,22,165,35,31,20,238,37*73
$GPGSV,3,2,09,18,16,091,29,23,12,090,25,15,10,144,21,09,09,033,*77
$GPGSV,3,3,09,03,08,213,30*48
$GPRMC,022809.622,A,4740.0293,N,12206.9397,W,55.31,270.33,050403,,*2F
$GPGSA,A,3,11,03,14,31,25,18,,,,,,,2.4,1.3,2.0*3E
$GPRMC,022810.622,A,4740.0295,N,12206.9621,W,54.30,270.89,050403,,*28
$GPGSV,3,1,09,14,74,068,39,11,39,300,36,25,22,165,34,31,20,238,37*73
$GPGSV,3,2,09,18,16,091,27,23,12,090,23,15,10,144,21,09,09,033,*7F
$GPGSV,3,3,09,03,08,213,31*49
$GPRMC,022811.622,A,4740.0298,N,12206.9846,W,54.19,270.91,050403,,*29
$GPGSA,A,3,11,03,14,31,25,,,,,,,,7.6,4.0,6.4*36
$GPRMC,022812.622,A,4740.0300,N,12207.0067,W,53.39,270.73,050403,,*20
$GPGSV,3,1,09,14,74,067,39,11,39,300,37,25,22,165,35,31,19,238,36*77
$GPGSV,3,2,09,18,15,091,28,23,12,090,23,15,10,144,,09,09,033,*70
$GPGSV,3,3,09,03,08,213,34*4C
$GPRMC,022813.622,A,4740.0302,N,12207.0288,W,53.41,270.62,050403,,*2F
$GPGSA,A,3,11,03,14,31,25,18,,,,,,,2.4,1.3,2.0*3E
$GPRMC,022814.622,A,4740.0304,N,12207.0509,W,53.48,270.27,050403,,*28
$GPGSV,3,1,09,14,74,067,38,11,39,300,36,25,22,165,36,31,19,238,37*75
$GPGSV,3,2,09,18,15,091,28,23,12,090,26,15,10,144,26,09,09,033,*71
$GPGSV,3,3,09,03,08,213,34*4C
$GPRMC,022815.622,A,4740.0305,N,12207.0728,W,52.88,270.52,050403,,*26
$GPGSA,A,3,11,03,14,31,25,18,,,,,,,2.4,1.3,2.0*3E
$GPRMC,022816.622,A,4740.0308,N,12207.0945,W,52.45,270.67,050403,,*2A
$GPGSV,3,1,09,14,74,067,39,11,39,300,36,25,22,165,36,31,19,238,37*74
$GPGSV,3,2,09,18,15,091,29,23,12,090,26,15,10,144,27,09,09,033,*71
$GPGSV,3,3,09,03,08,213,34*4C
$GPRMC,022817.622,A,4740.0309,N,12207.1162,W,52.60,270.42,050403,,*26
$GPGSA,A,3,11,03,14,31,25,,,,,,,,7.6,4.0,6.4*36
$GPRMC,022818.622,A,4740.0311,N,12207.1379,W,52.54,270.60,050403,,*2F
$GPGSV,3,1,09,14,74,067,39,11,39,300,37,25,22,165,35,31,19,238,37*76
$GPGSV,3,2,09,18,15,091,29,23,12,090,,15,10,144,27,09,09,033,*75
$GPGSV,3,3,09,03,08,213,35*4D
$GPRMC,022819.622,A,4740.0314,N,12207.1595,W,52.26,270.73,050403,,*28
$GPGSA,A,3,11,03,14,31,25,18,,,,,,,2.4,1.3,2.0*3E
$GPRMC,022820.622,A,4740.0317,N,12207.1809,W,51.83,271.03,050403,,*23
$GPGSV,3,1,09,14,74,067,39,11,39,300,37,25,22,165,35,31,19,238,37*76
$GPGSV,3,2,09,18,15,091,29,23,12,090,,15,10,144,30,09,09,033,*73
$GPGSV,3,3,09,03,08,213,35*4D
$GPRMC,022821.622,A,4740.0319,N,12207.2024,W,52.01,270.70,050403,,*24
$GPGSA,A,3,11,03,14,31,25,15,,,,,,,3.7,2.1,3.1*30
$GPRMC,022822.621,A,4740.0321,N,12207.2237,W,51.70,270.79,050403,,*23
$GPGSV,3,1,09,14,74,067,39,11,39,300,37,25,22,165,35,31,19,238,37*76
$GPGSV,3,2,09,18,15,091,27,23,12,090,,15,10,144,27,09,09,033,*7B
$GPGSV,3,3,09,03,08,213,35*4D
$GPRMC,022823.621,A,4740.0324,N,12207.2452,W,52.00,270.67,050403,,*29
$GPGSA,A,3,11,03,14,31,25,,,,,,,,7.6,4.1,6.5*36
$GPRMC,022824.621,A,4740.0326,N,12207.2666,W,52.05,270.60,050403,,*2B
$GPGSV,3,1,09,14,74,067,39,11,39,300,37,25,22,165,35,31,19,238,37*76
$GPGSV,3,2,09,18,15,091,29,23,12,090,,15,10,144,23,09,09,033,*71
$GPGSV,3,3,09,03,08,213,31*49
$GPRMC,022825.621,A,4740.0327,N,12207.2883,W,52.49,270.45,050403,,*21
$GPGSA,A,3,11,03,14,31,25,18,,,,,,,2.4,1.3,2.0*3E
$GPRMC,022826.621,A,4740.0329,N,12207.3099,W,52.52,270.66,050403,,*25
$GPGSV,3,1,09,14,74,067,39,11,39,300,37,25,22,165,35,31,19,238,38*79
$GPGSV,3,2,09,18,15,091,30,23,12,090,29,15,10,144,32,09,09,033,*72
$GPGSV,3,3,09,03,08,213,35*4D
$GPRMC,022827.621,A,4740.0332,N,12207.3316,W,52.65,270.86,050403,,*20
$GPGSA,A,3,11,03,14,31,25,18,,,,,,,2.4,1.3,2.0*3E
$GPRMC,022828.621,A,4740.0334,N,12207.3535,W,53.15,270.77,050403,,*26
$GPGSV,3,1,09,14,74,067,39,11,39,300,38,25,22,165,36,31,19,238,39*74
$GPGSV,3,2,09,18,15,091,28,23,12,090,26,15,10,144,30,09,09,033,*76
$GPGSV,3,3,09,03,08,213,31*49
$GPRMC,022829.621,A,4740.0339,N,12207.3754,W,53.21,271.74,050403,,*2A
$GPGSA,A,3,11,14,31,25,15,,,,,,,,3.8,2.2,3.1*3F
$GPRMC,022830.621,A,4740.0348,N,12207.3973,W,53.32,273.60,050403,,*2A
$GPGSV,3,1,09,14,74,067,39,11,39,300,38,25,22,165,35,31,19,238,38*76
$GPGSV,3,2,09,18,15,091,27,23,12,090,29,15,10,144,27,09,09,033,*70
$GPGSV,3,3,09,03,08,213,30*48
$GPRMC,022831.621,A,4740.0359,N,12207.4193,W,53.46,274.09,050403,,*21
$GPGSA,A,3,11,14,31,25,,,,,,,,,8.0,4.1,6.8*31
$GPRMC,022832.621,A,4740.0370,N,12207.4412,W,53.41,274.32,050403,,*2A
$GPGSV,3,1,09,14,74,067,38,11,39,300,37,25,22,165,38,31,19,238,37*7A
$GPGSV,3,2,09,18,15,091,31,23,12,090,30,15,10,144,30,09,09,033,*79
$GPGSV,3,3,09,03,08,213,32*4A
$GPRMC,022833.621,A,4740.0379,N,12207.4632,W,53.66,273.25,050403,,*26
$GPGSA,A,3,11,03,14,31,25,18,23,15,,,,,2.1,1.1,1.8*37
$GPRMC,022834.621,A,4740.0387,N,12207.4853,W,53.70,273.10,050403,,*28
$GPGSV,3,1,09,14,74,067,37,11,39,300,36,25,22,165,37,31,19,238,38*74
$GPGSV,3,2,09,18,15,091,30,23,12,090,30,15,10,144,31,09,09,033,*79
$GPGSV,3,3,09,03,08,213,34*4C
$GPRMC,022835.621,A,4740.0393,N,12207.5074,W,53.71,272.33,050403,,*21
$GPGSA,A,3,11,03,14,31,25,18,,,,,,,2.4,1.3,2.0*3E
$GPRMC,022836.620,A,4740.0396,N,12207.5295,W,53.77,271.28,050403,,*24
$GPGSV,3,1,09,14,74,067,37,11,39,300,35,25,22,165,39,31,19,238,36*77
$GPGSV,3,2,09,18,15,091,30,23,12,090,29,15,10,144,33,09,09,033,*73
$GPGSV,3,3,09,03,08,213,33*4B
$GPRMC,022837.620,A,4740.0392,N,12207.5516,W,53.65,268.43,050403,,*2B
$GPGSA,A,3,11,03,14,31,25,18,23,,,,,,2.1,1.2,1.8*30
$GPRMC,022838.620,A,4740.0382,N,12207.5738,W,54.00,266.22,050403,,*26
$GPGSV,3,1,09,14,74,067,37,11,39,300,37,25,22,165,36,31,19,238,36*7A
$GPGSV,3,2,09,18,15,091,29,23,12,090,34,15,10,144,32,09,09,033,*76
$GPGSV,3,3,09,03,08,213,31*49
$GPRMC,022839.620,A,4740.0366,N,12207.5957,W,53.68,263.79,050403,,*28
$GPGSA,A,3,11,03,14,31,25,23,15,,,,,,2.2,1.2,1.9*3F
$GPRMC,022840.620,A,4740.0345,N,12207.6175,W,53.48,261.67,050403,,*23
$GPGSV,3,1,09,14,74,067,38,11,39,300,39,25,22,165,32,31,19,238,37*7E
$GPGSV,3,2,09,18,15,091,24,23,12,090,31,15,10,144,26,09,09,033,*7B
$GPGSV,3,3,09,03,08,213,27*4E
$GPRMC,022841.620,A,4740.0317,N,12207.6391,W,53.38,259.27,050403,,*25
$GPGSA,A,3,11,14,31,25,,,,,,,,,8.1,4.2,6.9*32
$GPRMC,022842.620,A,4740.0286,N,12207.6603,W,52.91,257.48,050403,,*24
$GPGSV,3,1,09,14,74,067,39,11,39,300,36,25,22,165,36,31,19,238,38*7B
$GPGSV,3,2,09,18,15,091,24,23,12,090,24,15,10,144,34,09,09,033,33*7C
$GPGSV,3,3,09,03,08,213,26*4F
$GPRMC,022843.620,A,4740.0247,N,12207.6815,W,53.16,254.82,050403,,*2A
$GPGSA,A,3,11,14,31,25,15,09,,,,,,,1.8,1.0,1.5*33
$GPRMC,022844.620,A,4740.0202,N,12207.7022,W,52.99,252.03,050403,,*28
$GPGSV,3,1,09,14,74,067,40,11,39,300,36,25,22,165,38,31,19,238,38*7B
$GPGSV,3,2,09,18,15,091,,23,12,090,27,15,10,144,31,09,09,033,32*7D
$GPGSV,3,3,09,03,08,213,22*4B
$GPRMC,022845.620,A,4740.0153,N,12207.7227,W,52.72,250.54,050403,,*2C
$GPGSA,A,3,11,14,31,25,15,09,,,,,,,1.8,1.0,1.5*33
$GPRMC,022846.620,A,4740.0099,N,12207.7429,W,52.76,248.21,050403,,*2F
$GPGSV,3,1,09,14,74,067,40,11,39,300,37,25,22,165,37,31,19,238,33*7E
$GPGSV,3,2,09,18,15,091,,23,12,090,24,15,10,144,33,09,09,033,28*77
$GPGSV,3,3,09,03,08,213,22*4B
$GPRMC,022847.620,A,4740.0040,N,12207.7627,W,52.68,246.08,050403,,*2C
$GPGSA,A,3,11,14,31,25,,,,,,,,,8.1,4.2,7.0*3A
$GPRMC,022848.620,A,4739.9977,N,12207.7822,W,52.52,244.28,050403,,*2B
$GPGSV,3,1,09,14,74,067,40,11,39,300,36,25,22,165,31,31,19,238,33*79
$GPGSV,3,2,09,18,15,091,34,23,12,090,31,15,10,144,24,09,09,033,26*7C
$GPGSV,3,3,09,03,07,213,*44
$GPRMC,022849.620,A,4739.9909,N,12207.8014,W,52.65,242.49,050403,,*24
$GPGSA,A,3,11,14,31,18,23,,,,,,,,2.8,2.0,2.0*37
$GPRMC,022850.619,A,4739.9838,N,12207.8203,W,52.73,240.74,050403,,*2A
$GPGSV,3,1,09,14,74,067,39,11,39,300,35,25,22,165,23,31,19,238,36*72
$GPGSV,3,2,09,18,15,091,33,23,12,090,36,15,10,144,24,09,09,033,26*7C
$GPGSV,3,3,09,03,07,213,*44
$GPRMC,022851.619,A,4739.9762,N,12207.8389,W,52.75,238.64,050403,,*20
$GPGSA,A,3,11,14,31,23,,,,,,,,,2.9,2.0,2.1*3E
$GPRMC,022852.619,A,4739.9680,N,12207.8570,W,52.89,235.93,050403,,*28
$GPGSV,3,1,09,14,74,067,37,11,39,300,36,25,22,165,23,31,19,238,38*71
$GPGSV,3,2,09,18,15,091,31,23,12,090,24,15,10,144,,09,09,033,*7F
$GPGSV,3,3,09,03,07,213,35*42
$GPRMC,022853.619,A,4739.9591,N,12207.8744,W,52.87,232.86,050403,,*22
$GPGSA,A,2,03,14,31,,,,,,,,,,5.3,4.2,3.2*36
$GPRMC,022854.619,A,4739.9500,N,12207.8915,W,53.02,231.28,050403,,*2C
$GPGSV,3,1,09,14,74,067,38,11,39,300,30,25,22,165,,31,19,238,31*70
$GPGSV,3,2,09,18,15,091,25,23,12,090,25,15,10,144,,09,09,033,*7B
$GPGSV,3,3,09,03,07,213,35*42
$GPRMC,022855.619,A,4739.9401,N,12207.9077,W,53.04,227.96,050403,,*25
$GPGSA,A,2,11,14,31,,,,,,,,,,4.1,2.7,3.2*35
$GPRMC,022856.619,A,4739.9298,N,12207.9233,W,53.31,225.29,050403,,*22
$GPGSV,3,1,09,14,74,067,35,11,39,300,33,25,22,165,,31,19,238,33*7C
$GPGSV,3,2,09,18,15,091,25,23,12,090,25,15,10,144,,09,09,033,27*7E
$GPGSV,3,3,09,03,07,213,30*47
$GPGSA,A,3,11,03,14,31,09,,,,,,,,2.1,1.5,1.5*3C
$GPRMC,022858.619,A,4739.9080,N,12207.9529,W,53.49,221.34,050403,,*2C
$GPGSV,3,1,09,14,74,067,38,11,39,300,37,25,22,165,,31,19,238,34*72
$GPGSV,3,2,09,18,15,091,,23,12,090,,15,10,144,,09,09,033,28*71
$GPGSV,3,3,09,03,07,213,30*47
$GPGSA,A,3,11,03,14,31,,,,,,,,,9.3,5.0,7.9*37
$GPGSV,3,1,09,14,74,067,38,11,39,300,35,25,22,165,31,31,19,238,35*73
$GPGSV,3,2,09,18,15,091,,23,12,090,,15,10,144,,09,09,033,29*70
$GPGSV,3,3,09,03,07,213,30*47
$GPRMC,022901.619,A,4739.8721,N,12207.9922,W,53.78,214.11,050403,,*28
$GPGSA,A,3,11,14,31,25,09,,,,,,,,2.0,1.1,1.6*3E
$GPGSV,3,1,09,14,74,067,39,11,39,300,34,25,22,165,33,31,19,238,28*7D
$GPGSV,3,2,09,18,15,091,36,23,12,090,31,15,10,144,,09,09,033,34*7B
$GPGSV,3,3,09,03,07,213,24*42
$GPRMC,022903.619,A,4739.8464,N,12208.0148,W,53.77,209.66,050403,,*29
$GPGSA,A,3,11,14,31,25,18,09,,,,,,,1.9,1.0,1.6*3C
$GPGSV,3,1,09,14,74,067,39,11,39,300,37,25,22,165,37,31,19,238,35*76
$GPGSV,3,2,09,18,15,091,25,23,12,090,24,15,10,144,,09,09,033,35*7C
$GPGSV,3,3,09,03,07,213,29*4F
$GPRMC,022905.618,A,4739.8191,N,12208.0345,W,54.75,205.47,050403,,*24
$GPGSA,A,3,11,14,31,25,18,09,,,,,,,1.9,1.0,1.6*3C
$GPGSV,3,1,09,14,74,067,39,11,39,300,36,25,22,165,36,31,19,238,38*7B
$GPGSV,3,2,09,18,15,091,28,23,12,090,24,15,10,144,,09,09,033,34*70
$GPGSV,3,3,09,03,07,213,27*41
$GPRMC,022907.618,A,4739.7910,N,12208.0527,W,55.13,203.48,050403,,*22
$GPGSA,A,3,11,14,31,25,18,23,09,,,,,,1.8,1.0,1.6*3C
$GPGSV,3,1,09,14,74,067,39,11,39,300,36,25,22,165,40,31,19,238,34*76
$GPGSV,3,2,09,18,15,091,32,23,12,090,23,15,10,144,,09,09,033,30*78
$GPGSV,3,3,09,03,07,213,27*41
$GPRMC,022909.618,A,4739.7623,N,12208.0695,W,55.40,201.55,050403,,*21
$GPGSA,A,3,11,14,31,25,09,,,,,,,,2.0,1.1,1.6*3E
$GPGSV,3,1,09,14,74,067,39,11,39,300,37,25,22,165,39,31,19,238,38*75
$GPGSV,3,2,09,18,15,091,32,23,12,090,23,15,10,144,36,09,09,033,28*74
$GPGSV,3,3,09,03,07,213,*44
$GPRMC,022911.618,A,4739.7335,N,12208.0851,W,54.98,200.27,050403,,*2C
$GPGSA,A,3,11,14,31,25,15,,,,,,,,3.8,2.2,3.1*3F
$GPRMC,022912.618,A,4739.7191,N,12208.0930,W,54.93,200.57,050403,,*29
$GPGSV,3,1,09,14,74,066,38,11,39,300,37,25,22,165,39,31,19,238,35*78
$GPGSV,3,2,09,18,15,091,25,23,12,090,,15,10,144,25,09,09,033,27*7E
$GPGSV,3,3,09,03,07,213,33*44
$GPRMC,022913.618,A,4739.7049,N,12208.1006,W,54.48,200.15,050403,,*21
$GPGSA,A,3,11,03,14,31,25,18,,,,,,,2.4,1.3,2.0*3E
$GPRMC,022914.618,A,4739.6904,N,12208.1084,W,55.00,200.18,050403,,*2D
$GPGSV,3,1,09,14,74,066,37,11,39,300,35,25,22,165,39,31,19,238,37*77
$GPGSV,3,2,09,18,15,091,26,23,12,090,26,15,10,144,34,09,09,033,26*78
$GPGSV,3,3,09,03,07,213,28*4E
$GPRMC,022915.618,A,4739.6762,N,12208.1156,W,54.18,199.21,050403,,*2D
$GPGSA,A,3,11,14,31,25,18,15,09,,,,,,1.8,0.9,1.5*32
$GPRMC,022916.618,A,4739.6622,N,12208.1232,W,53.54,200.43,050403,,*22
$GPGSV,3,1,09,14,74,066,39,11,39,300,34,25,22,165,32,31,19,238,26*73
$GPGSV,3,2,09,18,15,091,32,23,12,090,36,15,10,144,23,09,09,033,30*7D
$GPGSV,3,3,09,03,07,213,35*42
$GPRMC,022917.618,A,4739.6484,N,12208.1314,W,53.31,202.21,050403,,*2D
$GPGSA,A,3,11,03,14,25,18,23,15,09,,,,,1.7,0.9,1.4*3C
$GPRMC,022918.618,A,4739.6345,N,12208.1394,W,53.63,201.70,050403,,*20
$GPGSV,3,1,09,14,74,066,38,11,39,300,34,25,22,165,37,31,19,238,31*71
$GPGSV,3,2,09,18,15,091,35,23,12,090,33,15,10,144,29,09,08,033,30*74
$GPGSV,3,3,09,03,07,213,35*42
$GPRMC,022919.617,A,4739.6206,N,12208.1479,W,54.19,202.70,050403,,*25
$GPGSA,A,3,11,03,14,31,25,18,23,15,09,,,,1.6,0.8,1.4*3E
$GPRMC,022920.617,A,4739.6071,N,12208.1559,W,52.34,202.09,050403,,*29
$GPGSV,3,1,09,14,74,066,39,11,39,300,34,25,22,165,39,31,19,238,37*78
$GPGSV,3,2,09,18,15,091,30,23,12,090,29,15,10,144,31,09,08,033,26*74
$GPGSV,3,3,09,03,07,213,36*41
$GPRMC,022921.617,A,4739.5937,N,12208.1637,W,51.75,201.66,050403,,*27
$GPGSA,A,3,11,03,14,31,25,18,23,15,,,,,2.1,1.1,1.8*37
$GPRMC,022922.617,A,4739.5801,N,12208.1714,W,52.42,201.27,050403,,*22
$GPGSV,3,1,09,14,74,066,39,11,39,300,38,25,22,165,39,31,19,238,37*74
$GPGSV,3,2,09,18,15,091,31,23,12,090,28,15,10,144,31,09,08,033,22*70
$GPGSV,3,3,09,03,07,213,33*44
$GPRMC,022923.617,A,4739.5665,N,12208.1788,W,52.08,200.32,050403,,*21
$GPGSA,A,3,11,03,14,31,25,18,,,,,,,2.4,1.3,2.0*3E
$GPRMC,022924.617,A,4739.5532,N,12208.1859,W,50.58,200.06,050403,,*24
$GPGSV,3,1,09,14,74,066,38,11,39,300,38,25,22,165,39,31,19,238,37*75
$GPGSV,3,2,09,18,15,091,27,23,12,090,28,15,10,144,31,09,08,033,20*75
$GPGSV,3,3,09,03,07,213,31*46
$GPRMC,022925.617,A,4739.5395,N,12208.1933,W,52.18,200.36,050403,,*26
$GPGSA,A,3,11,03,14,31,25,18,,,,,,,2.4,1.3,2.0*3E
$GPRMC,022926.617,A,4739.5259,N,12208.2005,W,52.10,199.82,050403,,*2F
$GPGSV,3,1,09,14,74,066,37,11,39,300,36,25,22,165,39,31,19,238,35*76
$GPGSV,3,2,09,18,15,091,26,23,12,090,,15,10,144,27,09,08,033,24*7D
$GPGSV,3,3,09,03,07,213,26*40
$GPRMC,022927.617,A,4739.5123,N,12208.2078,W,51.94,200.10,050403,,*2D
$GPGSA,A,3,11,14,31,25,18,15,,,,,,,2.4,1.3,2.0*39
$GPRMC,022928.617,A,4739.4988,N,12208.2149,W,51.47,199.83,050403,,*2E
$GPGSV,3,1,09,14,74,066,38,11,39,300,37,25,22,165,39,31,19,238,35*78
$GPGSV,3,2,09,18,15,091,28,23,12,090,,15,10,144,33,09,08,033,24*76
$GPGSV,3,3,09,03,07,213,32*45
$GPRMC,022929.617,A,4739.4851,N,12208.2222,W,52.03,200.05,050403,,*2A
$GPGSA,A,3,11,03,14,31,25,18,15,,,,,,2.3,1.3,2.0*3D
$GPRMC,022930.617,A,4739.4716,N,12208.2292,W,51.41,199.65,050403,,*25
$GPGSV,3,1,09,14,74,066,38,11,39,300,37,25,22,165,39,31,19,238,32*7F
$GPGSV,3,2,09,18,15,091,30,23,12,090,,15,10,144,30,09,08,033,*7A
$GPGSV,3,3,09,03,07,213,24*42
$GPRMC,022931.617,A,4739.4580,N,12208.2363,W,51.48,199.57,050403,,*2E
$GPGSA,A,3,11,03,14,31,25,18,,,,,,,2.4,1.3,2.0*3E
$GPRMC,022932.617,A,4739.4445,N,12208.2428,W,51.18,198.39,050403,,*21
$GPGSV,3,1,09,14,74,066,38,11,39,300,37,25,22,165,37,31,19,238,28*7A
$GPGSV,3,2,09,18,15,091,34,23,12,090,31,15,10,144,25,09,08,033,*78
$GPGSV,3,3,09,03,07,213,33*44
$GPRMC,022933.616,A,4739.4308,N,12208.2491,W,51.34,197.48,050403,,*2A
$GPGSA,A,3,11,03,14,25,18,23,,,,,,,2.2,1.2,1.8*31
$GPRMC,022934.616,A,4739.4170,N,12208.2550,W,51.40,196.37,050403,,*26
$GPGSV,3,1,09,14,74,066,36,11,39,300,33,25,22,165,35,31,19,238,28*72
$GPGSV,3,2,09,18,15,091,31,23,12,090,27,15,10,144,28,09,08,033,28*7D
$GPGSV,3,3,09,03,07,213,36*41
$GPRMC,022935.616,A,4739.4032,N,12208.2607,W,51.73,195.60,050403,,*20
$GPGSA,A,3,11,03,14,31,25,18,15,09,,,,,1.7,0.9,1.4*3F
$GPRMC,022936.616,A,4739.3893,N,12208.2659,W,51.46,194.24,050403,,*2B
$GPGSV,3,1,09,14,73,066,37,11,40,300,36,25,23,165,34,31,19,238,34*72
$GPGSV,3,2,09,18,15,091,35,23,12,090,32,15,09,144,35,09,08,033,33*73
$GPGSV,3,3,09,03,07,213,37*40
$GPRMC,022937.616,A,4739.3753,N,12208.2706,W,51.55,192.75,050403,,*22
$GPGSA,A,3,11,03,14,31,25,18,23,15,09,,,,1.6,0.8,1.4*3E
$GPRMC,022938.616,A,4739.3613,N,12208.2748,W,51.26,191.48,050403,,*2B
$GPGSV,3,1,09,14,73,066,35,11,40,300,34,25,23,165,35,31,19,238,30*77
$GPGSV,3,2,09,18,15,091,34,23,12,090,31,15,09,144,33,09,08,033,32*76
$GPGSV,3,3,09,03,07,213,37*40
$GPRMC,022939.616,A,4739.3474,N,12208.2784,W,50.79,190.13,050403,,*2D
$GPGSA,A,3,11,03,14,31,25,18,15,09,,,,,1.7,0.9,1.4*3F
$GPRMC,022940.616,A,4739.3334,N,12208.2816,W,50.51,188.80,050403,,*2D
$GPGSV,3,1,09,14,73,066,34,11,40,300,27,25,23,165,36,31,19,238,32*75
$GPGSV,3,2,09,18,15,091,34,23,12,090,27,15,09,144,34,09,08,033,30*74
$GPGSV,3,3,09,03,07,213,32*45
$GPRMC,022941.616,A,4739.3196,N,12208.2844,W,50.22,187.61,050403,,*25
$GPGSA,A,3,11,14,31,25,18,15,09,,,,,,1.8,0.9,1.5*32
$GPRMC,022942.616,A,4739.3057,N,12208.2867,W,50.24,186.49,050403,,*26
$GPGSV,3,1,09,14,73,066,34,11,40,300,34,25,23,165,37,31,19,238,33*77
$GPGSV,3,2,09,18,15,091,33,23,12,090,27,15,09,144,34,09,08,033,32*71
$GPGSV,3,3,09,03,07,213,25*43
$GPRMC,022943.616,A,4739.2918,N,12208.2887,W,49.95,185.73,050403,,*22
$GPGSA,A,3,11,14,31,25,18,09,,,,,,,1.9,1.0,1.6*3C
$GPRMC,022944.616,A,4739.2782,N,12208.2903,W,49.16,184.60,050403,,*2D
$GPGSV,3,1,09,14,73,066,34,11,40,300,33,25,23,165,36,31,19,238,28*7B
$GPGSV,3,2,09,18,15,091,30,23,12,090,23,15,09,144,40,09,08,033,33*74
$GPGSV,3,3,09,03,07,213,25*43
$GPRMC,022945.616,A,4739.2643,N,12208.2909,W,49.94,181.77,050403,,*23
$GPGSA,A,3,11,03,14,31,25,15,09,,,,,,1.7,0.9,1.4*36
$GPRMC,022946.616,A,4739.2505,N,12208.2922,W,49.53,183.75,050403,,*23
$GPGSV,3,1,09,14,73,066,36,11,40,300,36,25,23,165,37,31,19,238,33*77
$GPGSV,3,2,09,18,15,091,30,23,12,090,23,15,09,144,39,09,08,033,29*71
$GPGSV,3,3,09,03,07,213,33*44
$GPRMC,022947.615,A,4739.2370,N,12208.2925,W,48.48,180.91,050403,,*20
$GPGSA,A,3,11,03,14,31,25,15,09,,,,,,1.7,0.9,1.4*36
$GPRMC,022948.615,A,4739.2238,N,12208.2923,W,47.55,179.34,050403,,*2E
$GPGSV,3,1,09,14,73,066,36,11,40,300,39,25,23,165,38,31,19,238,31*75
$GPGSV,3,2,09,18,15,091,,23,12,090,,15,09,144,39,09,08,033,31*7A
$GPGSV,3,3,09,03,07,213,34*43
$GPRMC,022949.615,A,4739.2106,N,12208.2918,W,47.34,178.68,050403,,*26
$GPGSA,A,3,11,03,14,31,25,15,09,,,,,,1.7,0.9,1.4*36
$GPRMC,022950.615,A,4739.1975,N,12208.2910,W,47.20,177.60,050403,,*2B
$GPGSV,3,1,09,14,73,066,37,11,40,300,42,25,23,165,39,31,19,238,28*71
$GPGSV,3,2,09,18,15,091,,23,12,090,,15,09,144,37,09,08,033,31*74
$GPGSV,3,3,09,03,07,213,36*41
$GPRMC,022951.615,A,4739.1844,N,12208.2897,W,47.16,176.21,050403,,*26
$GPGSA,A,3,11,03,14,25,15,,,,,,,,4.0,2.4,3.2*34
$GPRMC,022952.615,A,4739.1713,N,12208.2880,W,47.38,175.08,050403,,*2A
